[
  { "name": "Matador Pizza", "type": "Pizza", "lat": 34.2398, "lng": -118.5301, "image":"https://picsum.photos/seed/matador-pizza/400/300","rating":4.3,"hours":"10:00 AM – 10:00 PM" },
  { "name": "Matador Pizza Express", "type": "Pizza", "lat": 34.2401, "lng": -118.5295, "image":"https://picsum.photos/seed/matador-express/400/300","rating":4.0,"hours":"10:00 AM – 10:00 PM" },
  { "name": "CSUN Sushi", "type": "Sushi", "lat": 34.2389, "lng": -118.5287, "image":"https://picsum.photos/seed/csun-sushi/400/300","rating":4.4,"hours":"10:00 AM – 10:00 PM" },
  { "name": "CSUN Sushi Bar", "type": "Sushi", "lat": 34.2392, "lng": -118.5279, "image":"https://picsum.photos/seed/csun-sushibar/400/300","rating":4.1,"hours":"10:00 AM – 10:00 PM" },
  { "name": "Northridge Burgers", "type": "Burgers", "lat": 34.2411, "lng": -118.5279, "image":"https://picsum.photos/seed/northridge-burgers/400/300","rating":4.2,"hours":"10:00 AM – 10:00 PM" },
  { "name": "Burger Town Northridge", "type": "Burgers", "lat": 34.2415, "lng": -118.5268, "image":"https://picsum.photos/seed/burger-town/400/300","rating":4.0,"hours":"10:00 AM – 10:00 PM" },
  { "name": "Campus Tacos", "type": "Mexican", "lat": 34.2404, "lng": -118.5312, "image":"https://picsum.photos/seed/campus-tacos/400/300","rating":4.5,"hours":"10:00 AM – 10:00 PM" },
  { "name": "Sunset Sandwiches", "type": "Sandwiches", "lat": 34.2420, "lng": -118.5290, "image":"https://picsum.photos/seed/sunset-sandwiches/400/300","rating":4.0,"hours":"10:00 AM – 10:00 PM" },
  { "name": "Olive Garden Northridge", "type": "Italian", "lat": 34.2383, "lng": -118.5491, "image":"https://picsum.photos/seed/olive-garden/400/300","rating":3.9,"hours":"10:00 AM – 10:00 PM" },
  { "name": "Northridge Italian Bistro", "type": "Italian", "lat": 34.2375, "lng": -118.5480, "image":"https://picsum.photos/seed/italian-bistro/400/300","rating":4.1,"hours":"10:00 AM – 10:00 PM" },
  { "name": "Northridge BBQ House", "type": "BBQ", "lat": 34.2365, "lng": -118.5457, "image":"https://picsum.photos/seed/northridge-bbq/400/300","rating":4.2,"hours":"10:00 AM – 10:00 PM" },
  { "name": "BBQ King Northridge", "type": "BBQ", "lat": 34.2360, "lng": -118.5442, "image":"https://picsum.photos/seed/bbq-king/400/300","rating":3.8,"hours":"10:00 AM – 10:00 PM" },
  { "name": "Northridge Pho Kitchen", "type": "Vietnamese", "lat": 34.2437, "lng": -118.5532, "image":"https://picsum.photos/seed/pho-kitchen/400/300","rating":4.4,"hours":"10:00 AM – 10:00 PM" },
  { "name": "Reseda Mediterranean Grill", "type": "Mediterranean", "lat": 34.2014, "lng": -118.5368, "image":"https://picsum.photos/seed/reseda-mediterranean/400/300","rating":4.1,"hours":"10:00 AM – 10:00 PM" },
  { "name": "Reseda Ramen Bar", "type": "Ramen", "lat": 34.2011, "lng": -118.5299, "image":"https://picsum.photos/seed/reseda-ramen/400/300","rating":4.3,"hours":"10:00 AM – 10:00 PM" },
  { "name": "Granada Hills Boba Tea", "type": "Boba Tea", "lat": 34.2647, "lng": -118.5024, "image":"https://picsum.photos/seed/granada-boba/400/300","rating":4.2,"hours":"10:00 AM – 10:00 PM" },
  { "name": "Granada Hills Thai House", "type": "Thai", "lat": 34.2611, "lng": -118.5001, "image":"https://picsum.photos/seed/granada-thai/400/300","rating":4.0,"hours":"10:00 AM – 10:00 PM" },
  { "name": "Granada Hills Curry Spot", "type": "Indian", "lat": 34.2663, "lng": -118.4982, "image":"https://picsum.photos/seed/granada-curry/400/300","rating":4.1,"hours":"10:00 AM – 10:00 PM" },
  { "name": "Van Nuys Burger Co.", "type": "Burgers", "lat": 34.1868, "lng": -118.4486, "image":"https://picsum.photos/seed/vannuys-burgerco/400/300","rating":3.9,"hours":"10:00 AM – 10:00 PM" },
  { "name": "Van Nuys Burger Hub", "type": "Burgers", "lat": 34.1872, "lng": -118.4495, "image":"https://picsum.photos/seed/vannuys-hub/400/300","rating":4.0,"hours":"10:00 AM – 10:00 PM" },
  { "name": "Van Nuys Chinese Express", "type": "Chinese", "lat": 34.1899, "lng": -118.4502, "image":"https://picsum.photos/seed/vannuys-chinese/400/300","rating":4.0,"hours":"10:00 AM – 10:00 PM" },
  { "name": "Van Nuys Smoothie Bar", "type": "Smoothies", "lat": 34.1845, "lng": -118.4454, "image":"https://picsum.photos/seed/vannuys-smoothie/400/300","rating":4.2,"hours":"10:00 AM – 10:00 PM" },
  { "name": "Chatsworth Chicken & Waffles", "type": "Chicken", "lat": 34.2583, "lng": -118.6010, "image":"https://picsum.photos/seed/chatsworth-chicken/400/300","rating":4.3,"hours":"10:00 AM – 10:00 PM" },
  { "name": "Chatsworth Chicken Grill", "type": "Chicken", "lat": 34.2578, "lng": -118.6001, "image":"https://picsum.photos/seed/chatsworth-grill/400/300","rating":4.0,"hours":"10:00 AM – 10:00 PM" },
  { "name": "Chatsworth Pizza Slice", "type": "Pizza", "lat": 34.2551, "lng": -118.5965, "image":"https://picsum.photos/seed/chatsworth-pizza/400/300","rating":3.9,"hours":"10:00 AM – 10:00 PM" },
  { "name": "Chatsworth Breakfast Café", "type": "Breakfast", "lat": 34.2577, "lng": -118.6048, "image":"https://picsum.photos/seed/chatsworth-breakfast/400/300","rating":4.1,"hours":"10:00 AM – 10:00 PM" },
  { "name": "Porter Ranch Grill", "type": "Grill", "lat": 34.2832, "lng": -118.5716, "image":"https://picsum.photos/seed/porter-grill/400/300","rating":4.2,"hours":"10:00 AM – 10:00 PM" },
  { "name": "Porter Ranch BBQ Grill", "type": "Grill", "lat": 34.2836, "lng": -118.5705, "image":"https://picsum.photos/seed/porter-bbq/400/300","rating":4.0,"hours":"10:00 AM – 10:00 PM" }
]
